City_ID,City,Lat,Lng,Max Temp,Humidity,Cloudiness,Wind Speed,Country,Date
0,yellowknife,62.456,-114.3525,289.44,88,75,3.6,CA,1688557479
1,adamstown,-25.066,-130.1015,294.18,70,90,3.77,PN,1688557484
2,afaahiti,-17.75,-149.2833,296.08,70,42,7.54,PF,1688557551
3,taoudenni,22.6783,-3.9836,319.95,8,1,2.18,ML,1688557650
4,iqaluit,63.7506,-68.5145,278.0,86,75,1.03,CA,1688557500
5,sokoni,-6.4333,39.55,302.07,66,4,6.25,TZ,1688558026
6,morondava,-20.2833,44.2833,297.57,57,1,5.24,MG,1688558026
7,ad dilam,23.9915,47.1627,317.38,5,5,8.33,SA,1688558026
8,olonkinbyen,70.9221,-8.7187,277.34,96,100,7.37,SJ,1688557516
9,nova sintra,14.8667,-24.7167,295.96,81,74,2.41,CV,1688557494
10,yuzhno-kurilsk,44.0306,145.8556,286.03,97,53,2.22,RU,1688557686
11,puerto ayora,-0.7393,-90.3518,296.79,94,99,0.89,EC,1688557506
12,blackmans bay,-43.0167,147.3167,281.33,87,99,1.83,AU,1688557496
13,dhidhdhoo,6.8833,73.1,301.09,79,100,9.59,MV,1688557764
14,doctor mora,21.1417,-100.3125,286.31,95,84,0.74,MX,1688558028
15,tarko-sale,64.9225,77.785,301.03,33,5,6.47,RU,1688558028
16,port-aux-francais,-49.35,70.2167,277.01,68,85,16.72,TF,1688557475
17,waitangi,-43.9535,-176.5597,280.83,87,99,7.15,NZ,1688557506
18,invercargill,-46.4,168.35,281.64,71,98,4.31,NZ,1688557413
19,bilibino,68.0546,166.4372,279.13,56,9,1.21,RU,1688557504
20,isafjordur,66.0755,-23.124,281.17,71,40,10.8,IS,1688557487
21,port mathurin,-19.6833,63.4167,297.27,67,7,10.92,MU,1688557542
22,thompson,55.7435,-97.8558,281.24,93,75,2.57,CA,1688557504
23,margaret river,-33.95,115.0667,285.71,72,99,5.67,AU,1688557462
24,tiksi,71.6872,128.8694,282.38,60,98,3.39,RU,1688557487
25,grytviken,-54.2811,-36.5092,271.54,73,15,2.51,GS,1688557490
26,barakani,-12.1356,44.4317,298.52,67,43,5.68,KM,1688558031
27,barah,13.7,30.3667,310.69,24,66,3.04,SD,1688557862
28,igarka,67.4667,86.5833,297.13,64,65,5.96,RU,1688557563
29,udachny,66.4167,112.4,294.51,59,90,0.58,RU,1688557514
30,howard springs,-12.497,131.047,298.61,75,78,0.99,AU,1688557635
31,sweetwater,25.7634,-80.3731,302.05,88,60,1.52,US,1688558033
32,ponta delgada,37.7333,-25.6667,295.55,73,40,2.57,PT,1688557890
33,albany,42.6001,-73.9662,294.11,97,3,1.37,US,1688557484
34,boden,65.8252,21.6886,287.15,66,92,2.44,SE,1688558033
35,yigo village,13.5361,144.8886,301.77,86,75,4.63,GU,1688558034
36,kralendijk,12.15,-68.2667,301.14,83,75,8.75,BQ,1688557468
37,vernon,50.2581,-119.2691,290.54,54,63,3.09,CA,1688557926
38,budhlada,29.9333,75.5667,302.57,67,88,5.17,IN,1688557780
39,whitecourt,54.1502,-115.6855,282.18,95,3,0.91,CA,1688558035
40,ribeira grande,38.5167,-28.7,296.37,68,20,2.68,PT,1688557478
41,bredasdorp,-34.5322,20.0403,286.83,60,100,5.02,ZA,1688557530
42,bilovods'k,49.2085,39.5897,306.04,34,14,2.81,UA,1688558035
43,addanki,15.8167,79.9833,302.03,70,100,1.85,IN,1688558036
44,college,64.8569,-147.8028,285.32,62,20,0.0,US,1688557565
45,mtambile,-5.3833,39.7,299.41,63,14,5.91,TZ,1688558037
46,ulsteinvik,62.3432,5.8487,290.97,60,22,3.13,NO,1688557576
47,ingeniero jacobacci,-41.3427,-69.5448,275.3,69,4,10.37,AR,1688558037
48,broken hill,-31.95,141.4333,282.32,74,0,5.21,AU,1688557563
49,sao joao da barra,-21.6403,-41.0511,290.2,74,58,3.15,BR,1688557679
50,hawaiian paradise park,19.5933,-154.9731,294.88,96,20,2.06,US,1688557513
51,ushuaia,-54.8,-68.3,271.96,93,0,1.03,AR,1688557235
52,aki,33.5,133.9,298.12,98,100,0.67,JP,1688558038
53,edinburgh of the seven seas,-37.0676,-12.3116,282.56,65,80,17.36,SH,1688557498
54,jamestown,42.097,-79.2353,293.72,97,40,1.54,US,1688557529
55,qaqortoq,60.7167,-46.0333,280.83,78,90,1.92,GL,1688557528
56,colonia,50.9333,6.95,295.34,46,0,10.8,DE,1688557441
57,masterton,-40.9597,175.6575,280.31,91,94,0.85,NZ,1688557557
58,vila franca do campo,37.7167,-25.4333,295.38,67,51,1.07,PT,1688557691
59,cidreira,-30.1811,-50.2056,289.84,71,1,2.14,BR,1688557503
60,carnarvon,-24.8667,113.6333,291.21,65,38,5.04,AU,1688557662
61,constantia,44.1833,28.65,304.65,56,0,4.1,RO,1688557551
62,pa sang,18.5262,98.9394,304.26,74,100,1.99,TH,1688558041
63,shivpuri,25.4333,77.65,300.88,79,82,6.52,IN,1688558041
64,west island,-12.1568,96.8225,299.14,65,100,5.14,CC,1688557489
65,wailua homesteads,22.0669,-159.378,298.59,86,100,7.72,US,1688557517
66,papatowai,-46.5619,169.4708,280.93,80,99,7.36,NZ,1688557494
67,hotan,37.0997,79.9269,304.56,15,100,1.78,CN,1688557457
68,praia da vitoria,38.7333,-27.0667,295.79,73,20,2.41,PT,1688557537
69,oruro,-17.9833,-67.15,276.51,26,0,1.49,BO,1688558042
70,la'ie,21.6477,-157.9253,299.13,75,41,2.24,US,1688557516
71,anadyr,64.75,177.4833,280.43,93,100,3.0,RU,1688557541
72,bardai,11.65,7.2333,304.15,44,52,3.02,NG,1688557815
73,lompoc,34.6391,-120.4579,287.6,92,100,2.57,US,1688557580
74,avarua,-21.2078,-159.775,296.18,88,100,3.6,CK,1688557573
75,stanley,54.868,-1.6985,289.97,59,20,6.69,GB,1688557547
76,dudinka,69.4058,86.1778,291.83,67,99,5.02,RU,1688557517
77,hafar al-batin,28.4328,45.9708,317.47,10,0,7.2,SA,1688557747
78,levuka,50.1834,-105.4011,280.0,87,75,1.54,CA,1688558044
79,yeniseysk,58.4497,92.1703,296.38,66,96,1.8,RU,1688558045
80,shahrak,34.1074,64.3052,295.82,17,0,9.26,AF,1688558046
81,barika,35.389,5.3658,309.87,20,0,6.57,DZ,1688558047
82,tandur,17.2333,77.5833,302.2,66,99,4.17,IN,1688557785
83,touros,-5.1989,-35.4608,300.07,73,76,8.58,BR,1688557427
84,vorgashor,67.5833,63.95,290.67,56,97,7.64,RU,1688557480
85,puerto natales,-51.7236,-72.4875,272.22,92,88,1.38,CL,1688557486
86,eureka,40.8021,-124.1637,285.49,96,33,0.45,US,1688558048
87,derzhavinsk,51.1,66.3167,300.45,43,37,7.72,KZ,1688558048
88,ilulissat,69.2167,-51.1,280.16,81,75,2.06,GL,1688557531
89,luderitz,-26.6481,15.1594,296.27,42,1,3.03,NA,1688557810
90,soma,39.1855,27.6094,308.06,37,0,4.92,TR,1688558049
91,nikolayevsk-on-amure,53.1406,140.73,284.92,93,83,1.76,RU,1688558049
92,chibougamau,49.9168,-74.3659,293.94,83,0,1.93,CA,1688557514
93,kodiak,57.79,-152.4072,281.88,93,100,7.2,US,1688557602
94,sechura,-5.5569,-80.8222,294.22,87,20,4.59,PE,1688558050
95,iskateley,67.6803,53.1512,294.16,45,78,7.14,RU,1688557528
96,laredo,27.5064,-99.5075,300.31,78,20,4.63,US,1688558051
97,tadmur,34.5608,38.2805,312.44,13,0,6.5,SY,1688558051
98,tura,25.5198,90.2201,300.28,89,94,1.56,IN,1688557542
99,greater sudbury,46.49,-80.99,293.74,89,46,2.2,CA,1688558052
100,manaure,11.7751,-72.4445,300.94,78,63,5.47,CO,1688558052
101,lihue,21.9789,-159.3672,298.92,81,100,7.72,US,1688557513
102,tshikapa,-6.4167,20.8,308.55,19,0,2.2,CD,1688557762
103,bonanza,14.0289,-84.591,295.21,99,87,0.92,NI,1688558053
104,hermanus,-34.4187,19.2345,288.6,60,78,6.18,ZA,1688557482
105,hastings,50.8552,0.5729,293.03,23,23,9.0,GB,1688558054
106,tsiombe,-25.3,45.4833,300.12,35,0,3.97,MG,1688557492
107,east london,-33.0153,27.9116,290.67,45,20,9.77,ZA,1688557429
108,utrik,11.2278,169.8474,301.38,78,77,9.77,MH,1688557583
109,natal,-5.795,-35.2094,298.51,83,40,6.17,BR,1688557407
110,ma'rib,15.4591,45.3253,312.62,8,52,7.16,YE,1688558055
111,punta arenas,-53.15,-70.9167,272.21,86,75,3.09,CL,1688557409
112,port alfred,-33.5906,26.891,289.92,56,35,4.92,ZA,1688557519
113,la sarre,48.8002,-79.1996,294.43,78,69,2.28,CA,1688557646
114,garrucha,37.1874,-1.8349,301.28,69,14,4.23,ES,1688558056
115,zhuanghe,39.7008,122.9911,295.47,77,0,2.57,CN,1688558056
116,aksu,41.1231,80.2644,302.16,25,98,9.38,CN,1688558033
117,eichendorf,48.6333,12.85,299.91,57,76,6.45,DE,1688558057
118,tsaratanana,-16.7833,47.65,300.6,43,16,4.99,MG,1688557846
119,bikenibeu village,1.3673,173.1241,302.13,84,40,4.63,KI,1688557524
120,pangkalpinang,-2.1333,106.1333,299.48,83,58,1.34,ID,1688558057
121,kirakira,-10.4544,161.9205,299.2,85,100,5.34,SB,1688558058
122,pisco,-13.7,-76.2167,289.18,82,20,2.06,PE,1688557629
123,mossel bay,-34.1831,22.146,288.11,58,83,2.04,ZA,1688558058
124,vadso,70.0744,29.7487,283.24,93,75,3.09,NO,1688557539
125,fasa,28.9383,53.6482,315.73,7,20,2.06,IR,1688557512
126,jayapura,-2.5333,140.7,296.81,96,100,3.58,ID,1688557920
127,haiku-pauwela,20.9219,-156.3051,297.06,76,0,5.14,US,1688557632
128,inirida,3.8653,-67.9239,297.28,92,93,0.71,CO,1688557612
129,papao,-17.75,-149.55,296.97,70,41,8.77,PF,1688558060
130,bonito,-21.1211,-56.4819,291.92,57,0,1.36,BR,1688558010
131,borzya,50.3833,116.5167,288.57,88,100,4.07,RU,1688557859
132,bethel,41.3712,-73.414,295.79,85,0,0.0,US,1688557501
133,manado,1.487,124.8455,298.58,100,40,1.03,ID,1688557780
134,coquimbo,-29.9533,-71.3436,285.68,78,1,1.61,CL,1688557763
135,hithadhoo,-0.6,73.0833,301.86,74,100,5.0,MV,1688557538
136,lebu,-37.6167,-73.65,281.93,83,100,3.97,CL,1688557490
137,saipan,15.1355,145.701,302.54,100,20,4.12,MP,1688557539
138,rongelap,11.1635,166.8941,301.33,81,16,10.34,MH,1688557488
139,casper,42.8666,-106.3131,284.66,81,76,2.68,US,1688558062
140,penjamo,20.4333,-101.7333,290.24,93,99,0.63,MX,1688558063
141,laojunmiao,39.8333,97.7333,297.74,11,100,3.31,CN,1688557534
142,mooloolaba,-26.6833,153.1167,292.07,83,0,3.14,AU,1688557830
143,tindouf,27.6711,-8.1474,315.4,11,0,6.69,DZ,1688557813
144,mhamid,29.82,-5.72,316.92,8,0,5.71,MA,1688558064
145,ayr,55.4627,-4.6339,290.36,67,40,6.69,GB,1688558064
146,port elizabeth,-33.918,25.5701,290.43,61,20,7.72,ZA,1688557481
147,sao raimundo das mangabeiras,-7.0219,-45.4811,300.02,44,79,5.57,BR,1688558065
148,zaterechnyy,44.7931,45.2097,308.5,20,0,5.94,RU,1688558066
149,san antonio de pale,-1.4014,5.6325,297.43,76,26,2.64,GQ,1688557569
150,whitehorse,60.7161,-135.0538,281.58,65,75,2.06,CA,1688557255
151,kavaratti,10.5669,72.642,301.62,79,100,11.86,IN,1688557664
152,mount isa,-20.7333,139.5,289.02,67,75,3.6,AU,1688557487
153,saint-philippe,-21.3585,55.7679,298.92,69,29,5.36,RE,1688557558
154,steinbach,50.1667,8.5667,295.15,46,0,10.29,DE,1688558067
155,san patricio,28.017,-97.5169,303.07,88,51,1.79,US,1688557556
156,oshnaviyeh,37.0397,45.0983,302.95,30,0,4.39,IR,1688558067
157,al mijlad,11.0333,27.7333,306.85,40,49,5.54,SD,1688557862
158,new norfolk,-42.7826,147.0587,282.55,91,100,0.95,AU,1688557567
159,kayangel,8.0823,134.7173,301.14,78,100,1.68,PW,1688558068
160,puerto deseado,-47.7503,-65.8938,276.93,66,55,8.69,AR,1688558069
161,mcalester,34.9334,-95.7697,297.6,90,1,0.89,US,1688558069
162,karratha,-20.7377,116.8463,293.75,38,91,4.33,AU,1688557559
163,fisterra,42.9049,-9.2629,294.68,85,90,4.93,ES,1688557675
164,sawakin,19.1059,37.3321,310.73,34,36,5.72,SD,1688557863
165,orange walk,17.8333,-88.8333,297.89,99,99,1.36,BZ,1688558070
166,usinsk,65.9939,57.5281,296.57,35,51,9.27,RU,1688557510
167,leeton,-34.5667,146.4,284.34,72,100,1.98,AU,1688558071
168,puerto armuelles,8.2833,-82.8667,299.91,85,97,0.45,PA,1688558071
169,hamilton,39.1834,-84.5333,295.8,93,100,0.0,US,1688557303
170,yaremche,48.4583,24.5519,295.95,75,89,1.58,UA,1688558072
171,viransehir,37.2353,39.7631,314.51,10,0,2.17,TR,1688558073
172,alice springs,-23.7,133.8833,281.9,81,40,0.0,AU,1688557763
173,sao tome,0.3365,6.7273,300.17,78,40,3.09,ST,1688557849
174,petropavlovsk-kamchatsky,53.0452,158.6483,285.48,88,0,3.0,RU,1688557348
175,monrovia,6.3005,-10.7969,303.02,79,90,3.27,LR,1688558045
176,sirte,31.2089,16.5887,300.48,62,0,5.34,LY,1688558074
177,urangan,-25.3,152.9,293.82,96,8,2.46,AU,1688558074
178,taroa,8.7058,171.2275,301.26,78,88,9.06,MH,1688558075
179,al burayqah,30.4062,19.5739,299.33,69,1,6.87,LY,1688558076
180,talnakh,69.4865,88.3972,291.6,94,100,4.6,RU,1688557517
181,motilla del palancar,39.5709,-1.9068,302.37,18,14,3.74,ES,1688558076
182,lancaster,40.2504,-76.2499,298.55,88,2,0.45,US,1688558077
183,dwarka,22.2394,68.9678,302.96,76,82,6.28,IN,1688557665
184,alofi,-19.0595,-169.9187,295.09,83,100,4.12,NU,1688557886
185,mount pearl,47.5166,-52.7813,292.77,88,100,7.2,CA,1688557604
186,saint-paul,-21.0096,55.2707,299.21,77,29,0.66,RE,1688558077
187,labrador city,52.9463,-66.9114,290.1,88,0,0.0,CA,1688557679
188,roscommon,53.6333,-8.1833,287.1,73,79,5.76,IE,1688558078
189,baruun-urt,46.6806,113.2792,290.89,60,99,3.96,MN,1688557840
190,santo antonio do leverger,-15.8656,-56.0767,290.36,38,2,1.89,BR,1688558079
191,sigli,5.3848,95.9609,300.87,73,76,0.79,ID,1688558079
192,badger,64.8,-147.5333,285.27,73,20,0.0,US,1688557545
193,poplar bluff,36.757,-90.3929,296.0,68,8,0.89,US,1688558080
194,lienz,46.8289,12.769,297.88,75,35,1.83,AT,1688558081
195,castillos,-34.1667,-53.8333,289.08,93,77,2.42,UY,1688558081
196,shingu,33.7333,135.9833,297.75,99,100,2.03,JP,1688557573
197,lata,40.1629,-8.3327,301.2,48,91,3.47,PT,1688557602
198,mermoz boabab,14.7065,-17.4758,305.46,66,40,6.17,SN,1688558082
199,happy valley-goose bay,53.3168,-60.3315,287.32,82,75,1.54,CA,1688557510
200,arraial do cabo,-22.9661,-42.0278,292.07,82,0,6.69,BR,1688557776
201,kingston,17.997,-76.7936,301.68,84,40,11.83,JM,1688557598
202,slavutych,51.5196,30.7343,301.04,40,100,1.79,UA,1688558083
203,lenino,45.2986,35.7771,305.01,37,0,3.11,UA,1688558084
204,jalgaon jamod,21.0486,76.5344,304.81,61,96,2.29,IN,1688558084
205,tazovsky,67.4667,78.7,291.16,61,4,5.43,RU,1688557508
206,orzu,37.5593,68.8184,309.37,11,2,5.75,TJ,1688558085
207,vilyuchinsk,52.9306,158.4028,286.3,94,95,1.24,RU,1688557512
208,cabo san lucas,22.8909,-109.9124,301.21,45,21,0.89,MX,1688557397
209,geraldton,-28.7667,114.6,284.38,87,75,2.57,AU,1688557749
210,beira,-19.8436,34.8389,302.2,48,20,1.54,MZ,1688557909
211,ust-nera,64.5667,143.2,291.53,47,27,2.87,RU,1688557536
212,saldanha,-33.0117,17.9442,292.18,54,78,4.01,ZA,1688557561
213,fortuna,40.5982,-124.1573,285.34,96,100,0.45,US,1688557588
214,nuriootpa,-34.4833,139.0,286.47,66,53,5.38,AU,1688558087
215,tual,-5.6667,132.75,299.88,86,66,8.46,ID,1688557671
216,dampit,-8.2116,112.7493,294.23,98,78,1.55,ID,1688558088
217,bangassou,4.7413,22.8184,300.6,69,58,1.97,CF,1688557675
218,tamanrasset,22.785,5.5228,310.1,9,0,3.6,DZ,1688558089
219,trincomalee,8.5711,81.2335,303.05,63,99,10.34,LK,1688558011
220,castrovillari,39.8203,16.2123,301.64,50,17,3.16,IT,1688558089
221,linxia chengguanzhen,35.6003,103.2064,289.37,70,60,1.35,CN,1688558089
222,at taj,24.2049,23.2857,311.78,12,9,6.52,LY,1688558090
223,goundam,16.4145,-3.6708,311.95,25,29,6.02,ML,1688558090
224,grande prairie,55.1667,-118.8027,282.25,100,40,0.0,CA,1688558091
225,zaozersk,69.4005,32.4476,282.1,94,100,2.33,RU,1688558091
226,sassandra,4.95,-6.0833,302.04,66,75,2.73,CI,1688557923
227,nuuk,64.1835,-51.7216,279.13,89,100,4.29,GL,1688557880
228,ribas do rio pardo,-20.4431,-53.7592,291.29,52,1,1.96,BR,1688558092
229,hasaki,35.7333,140.8333,298.27,89,100,6.71,JP,1688557459
230,huruta,8.15,39.35,297.17,49,49,2.51,ET,1688558093
231,essaouira,31.5125,-9.77,298.83,60,3,11.18,MA,1688558093
232,montepuez,-13.1256,38.9997,299.65,31,92,2.63,MZ,1688558094
233,cill airne,52.05,-9.5167,288.18,82,75,7.72,IE,1688557887
234,warwick,41.7001,-71.4162,295.83,91,5,0.45,US,1688558094
235,tofol,5.3248,163.0078,301.86,77,84,8.11,FM,1688557603
236,targu secuiesc,46.0,26.1333,300.15,62,45,3.15,RO,1688558095
237,longyearbyen,78.2186,15.6401,288.06,47,0,4.12,SJ,1688557496
238,fale old settlement,-9.3852,-171.2468,301.44,78,17,7.67,TK,1688557627
239,bubaque,11.2833,-15.8333,301.04,79,68,4.97,GW,1688557592
240,lodwar,3.1191,35.5973,306.18,31,0,3.27,KE,1688558096
241,ha'il,27.5219,41.6907,312.16,10,0,2.06,SA,1688557924
242,sur,22.5667,59.5289,305.22,65,100,2.89,OM,1688557525
243,vuktyl,63.8567,57.3094,299.55,30,27,4.86,RU,1688558097
244,georgetown,5.4112,100.3354,304.79,67,40,4.63,MY,1688558075
245,al kharj,24.155,47.3346,317.47,4,4,8.42,SA,1688558098
246,ebon,4.582,168.6964,301.61,79,57,8.17,MH,1688558098
247,arvayheer,46.2639,102.775,287.96,55,11,10.4,MN,1688558098
248,birao,10.2849,22.7882,299.85,72,100,1.85,CF,1688558099
249,uturoa,-16.7333,-151.4333,299.63,78,100,8.87,PF,1688558100
250,mersing,2.4312,103.8405,303.1,79,20,1.03,MY,1688558101
251,viedma,-40.8135,-62.9967,279.37,47,41,6.11,AR,1688558101
252,fayzabad,37.1166,70.58,301.2,27,80,2.59,AF,1688558102
253,ola,59.5833,151.2833,287.12,97,93,2.92,RU,1688557535
254,anori,-3.7728,-61.6442,299.18,78,99,0.87,BR,1688558102
255,boca suno,-0.7167,-77.1333,294.32,98,63,0.39,EC,1688558103
256,st. john's,47.5649,-52.7093,293.23,89,100,7.2,CA,1688557564
257,puerto santa,-8.9906,-78.6456,294.95,80,94,3.18,PE,1688557875
258,livadeia,38.435,22.8739,305.89,41,11,4.23,GR,1688558104
259,borcka,41.3632,41.6765,299.35,55,0,2.68,TR,1688558104
260,remire-montjoly,4.9167,-52.2667,298.17,88,0,1.03,GF,1688557360
261,kruisfontein,-34.0033,24.7314,289.2,55,62,6.07,ZA,1688557646
262,seydi,39.4816,62.9137,310.62,14,13,7.65,TM,1688558105
263,ginir,7.1333,40.7,295.6,57,65,2.59,ET,1688558105
264,kidal,18.4411,1.4078,313.21,14,0,3.05,ML,1688558105
265,susuman,62.7833,148.1667,288.3,87,100,1.65,RU,1688558106
266,ust'-ilimsk,58.0006,102.6619,298.02,53,91,4.45,RU,1688557356
267,sheboygan,43.7333,-87.9334,297.31,80,39,0.45,US,1688558107
268,saint-francois,46.4154,3.9054,293.84,56,75,3.09,FR,1688557784
269,santa elena de uairen,4.6167,-61.1333,294.15,82,87,1.13,VE,1688558107
270,ziro,27.6333,93.8333,292.56,97,85,0.54,IN,1688558108
271,buka,40.8108,69.1986,308.33,15,1,6.99,UZ,1688557672
272,hassi messaoud,31.6804,6.0729,316.07,10,4,3.6,DZ,1688557532
273,canakkale,40.0833,26.8333,300.66,45,15,7.22,TR,1688558109
274,richards bay,-28.783,32.0377,292.28,67,99,6.62,ZA,1688557826
275,cozumel,20.5083,-86.9458,300.9,94,75,0.0,MX,1688558109
276,pacific grove,36.6177,-121.9166,286.05,86,100,1.54,US,1688557618
277,prince rupert,54.3161,-130.3201,285.98,92,100,4.63,CA,1688557602
278,pusad,19.9,77.5833,305.7,54,78,2.05,IN,1688558110
279,sitka,57.0531,-135.33,286.09,67,100,4.12,US,1688557791
280,cabedelo,-6.9811,-34.8339,298.52,77,71,8.41,BR,1688558111
281,el calafate,-50.3408,-72.2768,271.52,88,60,2.79,AR,1688557615
282,jabat,7.75,168.9751,301.44,80,46,9.3,MH,1688558112
283,barranca,-10.75,-77.7667,292.98,82,67,3.37,PE,1688557692
284,leava,-14.3,-178.1667,300.62,69,41,7.49,WF,1688558113
285,kirensk,57.7853,108.1119,294.73,80,100,4.12,RU,1688558113
286,colby,39.3958,-101.0524,290.18,92,75,10.8,US,1688558113
287,masaka,-0.3338,31.7341,299.64,39,25,6.96,UG,1688558113
288,pocoes,-14.5297,-40.3653,288.87,83,77,3.4,BR,1688558114
289,tipasa,36.5897,2.4475,303.73,50,0,3.73,DZ,1688558114
290,puerto baquerizo moreno,-0.9,-89.6,298.29,79,100,4.74,EC,1688557659
291,san juan de uraba,8.7592,-76.5297,298.74,90,100,1.53,CO,1688558115
292,khandyga,62.6667,135.6,291.34,65,80,1.19,RU,1688558115
293,majuro,7.0897,171.3803,301.13,78,75,3.09,MH,1688558116
294,cornwall,45.0181,-74.7281,296.62,92,8,2.8,CA,1688558116
295,tres isletas,-26.3407,-60.4321,294.83,50,78,3.01,AR,1688558116
296,williston,48.147,-103.618,282.77,89,71,2.06,US,1688558117
297,tabas,33.5959,56.9244,313.27,9,0,4.12,IR,1688558117
298,abepura,-2.6333,140.5833,296.6,94,40,1.03,ID,1688557656
299,codrington,-38.2667,141.9667,283.19,77,93,6.28,AU,1688557623
300,birjand,32.8663,59.2211,305.41,9,0,8.23,IR,1688558118
301,young,-32.6833,-57.6333,290.14,90,73,0.86,UY,1688558118
302,nyagan,62.1406,65.3936,302.73,27,3,3.25,RU,1688558118
303,atafu village,-8.5421,-172.5159,301.57,77,26,7.56,TK,1688558119
304,faya-largeau,17.9257,19.1043,316.01,10,10,8.01,TD,1688557880
305,kasungu,-13.0333,33.4833,296.13,34,20,5.95,MW,1688558119
306,mombaca,-5.7431,-39.6275,298.75,55,40,4.52,BR,1688558120
307,sidi khaled,34.387,4.9879,312.34,18,0,3.83,DZ,1688558120
308,murmuiza,57.4833,25.4833,292.71,48,61,5.04,LV,1688558120
309,mata-utu,-13.2816,-176.1745,300.87,78,60,8.76,WF,1688557637
310,shimoda,34.6667,138.95,295.99,93,100,2.79,JP,1688557510
311,adre,13.4667,22.2,305.37,38,100,4.95,TD,1688558121
312,rach gia,10.0167,105.0833,302.19,76,84,5.95,VN,1688558122
313,trenggalek,-8.05,111.7167,296.87,96,87,1.82,ID,1688557704
314,tadine,-21.55,167.8833,294.31,76,27,4.42,NC,1688558123
315,acapulco de juarez,16.8634,-99.8901,300.05,89,75,2.06,MX,1688557682
316,kanchanaburi,14.6333,99.1,297.63,88,100,1.77,TH,1688558124
317,siwa oasis,29.2041,25.5195,308.94,22,0,4.16,EG,1688557818
318,akhmim,26.5622,31.745,311.26,16,0,7.81,EG,1688558127
319,la passe,45.5549,-0.8967,296.28,62,93,4.27,FR,1688557629
320,itoman,26.1247,127.6694,302.58,91,75,7.72,JP,1688557570
321,gorontalo,0.5412,123.0595,298.29,95,100,0.94,ID,1688558128
322,kununurra,-15.7667,128.7333,296.14,73,40,0.0,AU,1688557685
323,malegaon,20.55,74.5333,302.29,69,96,2.57,IN,1688558129
324,nueva gerona,21.8833,-82.8,301.87,75,99,3.63,CU,1688558130
325,kerikeri,-35.2268,173.9474,283.66,92,91,0.45,NZ,1688557576
326,souillac,-20.5167,57.5167,298.36,61,20,5.66,MU,1688557659
327,chinsali,-10.5414,32.0816,297.36,27,0,3.42,ZM,1688558130
328,akhaltsikhe,41.639,42.9826,300.72,47,27,2.59,GE,1688558132
329,revda,56.801,59.9303,299.86,50,43,2.27,RU,1688557904
330,crane,31.3974,-102.3501,297.26,64,0,5.9,US,1688557581
331,weno,7.4515,151.8468,301.12,89,100,2.06,FM,1688557553
332,olenino,56.2092,33.4889,296.82,47,41,3.22,RU,1688557594
333,kapuskasing,49.4169,-82.4331,292.2,82,75,4.12,CA,1688557694
334,ambovombe,-25.1667,46.0833,298.98,38,0,2.87,MG,1688557846
335,magadan,59.5667,150.8,286.78,97,90,2.8,RU,1688558134
336,menongue,-14.6585,17.691,298.78,18,1,4.37,AO,1688557629
337,port saint john's,-31.6229,29.5448,291.34,43,22,6.74,ZA,1688557927
338,juva,56.4368,57.9478,302.4,40,6,3.23,RU,1688558134
339,ankang,32.68,109.0172,299.63,68,51,0.91,CN,1688558075
340,ribeira brava,32.65,-17.0667,297.11,75,38,0.85,PT,1688558136
341,lautoka,-17.6167,177.4667,295.07,78,20,0.0,FJ,1688558136
342,kunming,25.0389,102.7183,297.11,57,40,8.0,CN,1688557959
343,gizo,-8.103,156.8419,299.45,86,100,4.8,SB,1688558136
344,wlodawa,51.55,23.55,302.01,37,60,3.28,PL,1688558137
345,port lincoln,-34.7333,135.8667,286.61,73,64,5.6,AU,1688557585
346,piton saint-leu,-21.2196,55.3151,297.21,47,20,2.57,RE,1688558138
347,timimoun,29.2639,0.231,320.36,5,3,8.23,DZ,1688557493
348,klyuchi,52.2667,79.1667,296.25,47,95,3.48,RU,1688557630
349,bintulu,3.1667,113.0333,298.38,94,40,0.51,MY,1688558139
350,machina,13.1364,10.0492,309.3,29,87,4.02,NG,1688558139
351,ialibu,-6.2821,143.9935,287.7,98,98,0.49,PG,1688558139
352,uray,60.1247,64.7758,303.18,31,1,3.21,RU,1688558140
353,poronaysk,49.2167,143.1167,283.25,94,100,2.31,RU,1688557543
354,villa gesell,-37.2639,-56.973,284.29,87,6,4.47,AR,1688558140
355,mahina,-17.5065,-149.489,297.02,73,40,2.06,PF,1688558140
356,mullovka,54.2,49.4,303.05,37,84,0.89,RU,1688558141
357,dunedin,-45.8742,170.5036,281.93,66,92,9.39,NZ,1688557566
358,chipinge,-20.1883,32.6236,295.79,22,1,4.08,ZW,1688558074
359,lashio,22.9333,97.75,295.48,97,100,0.39,MM,1688558142
360,berezovyy,51.6667,135.7,290.71,90,19,1.01,RU,1688558142
361,nar'yan-mar,67.6713,53.087,294.23,45,77,7.16,RU,1688557438
362,cuito,-12.3833,16.9333,296.41,22,0,2.18,AO,1688558143
363,dryden,49.7833,-92.7503,284.31,87,100,2.57,CA,1688558143
364,mauganj,24.6833,81.8833,306.76,49,97,4.24,IN,1688558143
365,pekan,3.4836,103.3996,302.21,80,67,2.03,MY,1688558144
366,saint-pierre,-21.3393,55.4781,298.97,47,20,2.57,RE,1688557790
367,glenwood springs,39.5505,-107.3248,290.72,58,0,2.57,US,1688558144
368,veneux-les-sablons,48.3787,2.795,295.02,48,54,6.06,FR,1688558144
369,flying fish cove,-10.4217,105.6791,296.97,83,40,4.63,CX,1688558145
370,guadalajara,20.6667,-103.3333,290.53,93,71,0.54,MX,1688558145
371,selkirk,50.1436,-96.8845,284.3,89,75,0.45,CA,1688558145
372,thunder bay,48.4001,-89.3168,290.14,94,20,2.57,CA,1688558145
373,rio grande,-32.035,-52.0986,289.23,87,55,3.68,BR,1688557562
374,cabras,39.93,8.5314,303.63,52,2,5.1,IT,1688558146
375,sosnogorsk,63.6023,53.8817,299.46,29,14,4.39,RU,1688558146
376,dzhambeyty,50.2536,52.595,302.88,38,61,4.4,KZ,1688558147
377,barra de santo antonio,-9.4047,-35.5072,296.75,72,32,5.94,BR,1688558147
378,gadzhiyevo,69.2551,33.3362,281.93,95,100,3.52,RU,1688557572
379,naze,28.3667,129.4833,300.66,84,100,8.17,JP,1688557458
380,belyy yar,53.6039,91.3903,297.09,50,0,5.0,RU,1688557875
381,shizuishan,39.2333,106.7694,305.15,7,34,4.23,CN,1688558149
382,portland,45.5234,-122.6762,293.12,66,0,2.06,US,1688557587
383,mareeba,-17.0,145.4333,295.06,94,91,1.33,AU,1688558149
384,rikaze,29.25,88.8833,296.44,25,94,3.48,CN,1688557817
385,cruz alta,-28.6386,-53.6064,287.33,78,3,2.76,BR,1688558150
386,fort bragg,35.139,-79.006,298.26,89,40,1.54,US,1688558150
387,pacasmayo,-7.4006,-79.5714,294.65,86,88,4.68,PE,1688557614
388,katsuren-haebaru,26.3369,127.8719,302.58,90,0,7.72,JP,1688557831
389,north bend,43.4065,-124.2243,286.44,100,100,1.54,US,1688558151
390,san julian,21.0167,-102.1667,289.55,84,95,1.38,MX,1688558151
391,oranjemund,-28.55,16.4333,295.85,32,0,2.97,NA,1688557768
392,popondetta,-8.7537,148.2534,296.11,98,97,1.27,PG,1688557854
393,necochea,-38.5473,-58.7368,281.96,85,69,3.33,AR,1688557561
394,polyarnyy,69.1989,33.4478,282.32,94,100,3.64,RU,1688558152
395,dila,6.4167,38.3167,296.41,64,47,2.37,ET,1688558152
396,escanaba,45.7453,-87.0646,294.32,100,100,0.0,US,1688558152
397,derbent,42.0678,48.2899,301.04,47,99,2.85,RU,1688558153
398,porto novo,6.4965,2.6036,301.05,73,99,1.09,BJ,1688557796
399,nadym,65.5333,72.5167,298.78,39,40,4.83,RU,1688558065
400,arta,39.1606,20.9853,302.95,48,12,4.32,GR,1688558154
401,gaur,26.7667,85.2667,307.9,52,87,3.65,NP,1688558154
402,aasiaat,68.7098,-52.8699,276.09,98,100,4.1,GL,1688558155
403,calvinia,-31.4707,19.776,289.09,32,86,1.73,ZA,1688557617
404,gebeit,21.0667,36.3167,315.32,9,51,4.22,SD,1688558155
405,bandarbeyla,9.4942,50.8122,305.11,45,100,11.7,SO,1688558156
406,arno,60.1167,18.6333,288.59,74,56,3.23,SE,1688558156
407,tolanaro,-25.0319,46.9987,301.19,54,20,5.14,MG,1688557564
408,eregli,37.5133,34.0467,306.08,16,0,4.94,TR,1688558156
409,galliano,29.4422,-90.2992,300.15,89,0,0.0,US,1688558157
410,nuku'alofa,-21.1333,-175.2,292.34,88,20,2.06,TO,1688557894
411,padang,-0.9492,100.3543,299.18,97,98,0.35,ID,1688557617
412,kutum,14.2,24.6667,305.23,28,82,5.26,SD,1688558157
413,santa ines,-3.6667,-45.38,300.78,56,62,4.27,BR,1688558158
414,tateyama,34.9833,139.8667,297.04,90,100,6.16,JP,1688558147
415,mount gambier,-37.8333,140.7667,284.11,69,84,4.25,AU,1688557826
416,baihe,22.15,107.2333,301.11,74,93,3.34,CN,1688558159
417,groningen,53.25,6.75,291.19,70,100,11.83,NL,1688558159
418,hami,42.8,93.45,307.55,9,32,7.53,CN,1688558100
419,panaba,21.2833,-88.2667,298.36,94,99,2.87,MX,1688558160
420,colachel,8.1667,77.25,297.6,89,100,5.73,IN,1688558160
421,lerwick,60.1545,-1.1494,286.15,72,93,2.19,GB,1688557778
422,morant bay,17.8815,-76.4093,301.94,85,93,7.78,JM,1688558160
423,pacocha,-17.5833,-71.3333,291.23,82,100,5.14,PE,1688557807
424,foix,42.8333,1.5833,297.65,60,75,2.25,FR,1688558161
425,arroyo de la luz,39.4851,-6.584,305.76,20,87,2.8,ES,1688558161
426,tralee,52.2704,-9.7026,288.29,82,75,7.72,IE,1688557678
427,guarapari,-20.6667,-40.4975,291.98,69,82,0.96,BR,1688557585
428,yuci,37.6803,112.7319,302.01,42,0,5.0,CN,1688558162
429,paphos,34.7667,32.4167,304.39,65,20,6.17,CY,1688558162
430,ruelle-sur-touvre,45.6833,0.2333,295.86,66,75,1.54,FR,1688558163
431,simanggang,1.2472,111.4528,301.14,89,46,0.0,MY,1688558163
432,laguna,38.421,-121.4238,291.53,82,0,5.14,US,1688557888
433,maridi,4.9158,29.4742,299.81,75,3,0.91,SS,1688557820
434,kailua-kona,19.6406,-155.9956,299.13,97,75,3.09,US,1688557634
435,frankfort,-27.2667,28.4833,290.99,18,0,3.44,ZA,1688558164
436,puerto escondido,15.85,-97.0667,299.15,89,100,2.12,MX,1688558165
437,djambala,-2.5447,14.7533,304.27,27,11,2.13,CG,1688558165
438,rauma,61.1272,21.5113,290.17,79,91,5.15,FI,1688557939
439,martapura,-3.4167,114.85,300.2,89,40,0.0,ID,1688558166
440,oliena,40.2723,9.403,305.18,31,1,1.32,IT,1688558166
441,kupang,-10.1667,123.5833,299.47,83,75,4.12,ID,1688557618
442,ivatsevichy,52.709,25.3401,300.06,37,48,0.17,BY,1688558167
443,humaita,-7.5061,-63.0208,297.13,63,7,0.79,BR,1688558167
444,namibe,-15.1961,12.1522,297.5,60,0,2.57,AO,1688558168
445,queenstown,-31.8976,26.8753,285.59,44,45,2.35,ZA,1688557742
446,bagan serai,5.0108,100.541,304.83,81,72,0.6,MY,1688558168
447,zary,51.6421,15.1373,290.25,87,98,4.42,PL,1688558169
448,saint-joseph,-21.3667,55.6167,298.36,67,26,4.16,RE,1688558169
449,new richmond,45.123,-92.5366,291.84,99,100,3.6,US,1688558170
450,north battleford,52.7834,-108.2847,280.6,100,0,1.54,CA,1688558170
451,samitah,16.596,42.9444,312.0,26,79,8.78,SA,1688558170
452,margate,51.3813,1.3862,292.76,61,24,0.89,GB,1688557661
453,mwinilunga,-11.7358,24.4293,298.76,26,0,3.47,ZM,1688558171
454,wotho,10.1657,166.0102,301.55,79,24,10.63,MH,1688558171
455,newman,37.3138,-121.0208,291.28,79,0,1.79,US,1688557663
456,linden,6.0,-58.3,298.72,91,43,1.26,GY,1688558172
457,saudarkrokur,65.7461,-19.6394,278.6,98,100,5.45,IS,1688558172
458,keflavik,64.0049,-22.5624,282.39,76,75,10.8,IS,1688558172
459,along,28.1667,94.7667,299.7,95,95,0.8,IN,1688558172
460,esqueda,30.7167,-109.5833,294.95,51,5,2.58,MX,1688558173
461,pangody,65.85,74.4859,296.87,43,32,5.56,RU,1688558173
462,patacamaya,-17.2333,-67.9167,279.11,29,0,1.31,BO,1688558173
463,enewetak,11.3474,162.3373,301.77,80,37,10.07,MH,1688557779
464,qingdao,36.0986,120.3719,306.93,36,0,5.0,CN,1688558055
465,buraydah,26.326,43.975,315.4,4,8,7.0,SA,1688558174
466,okhotsk,59.3833,143.3,284.05,92,65,3.15,RU,1688558175
467,beloha,-25.1667,45.05,298.55,42,0,5.83,MG,1688558175
468,bonthe,7.5264,-12.505,300.77,77,46,3.54,SL,1688557916
469,domerat,46.3606,2.5343,292.19,76,75,4.65,FR,1688558176
470,cedeira,43.6797,-8.0209,295.37,80,98,3.02,ES,1688558176
471,poso,-1.3959,120.7524,298.51,91,90,2.27,ID,1688558177
472,cipo,-11.0997,-38.5136,297.28,65,40,4.64,BR,1688558177
473,lorengau,-2.0226,147.2712,299.72,83,100,1.58,PG,1688557812
474,agat village,13.3886,144.6585,302.57,88,47,0.89,GU,1688558178
475,cockburn town,21.4612,-71.1419,301.37,80,100,8.61,TC,1688557684
476,kolonia,50.9333,6.95,294.72,47,0,10.8,DE,1688557945
477,tchollire,8.4022,14.1698,296.09,88,100,2.08,CM,1688558179
478,leua,48.2156,18.6071,303.98,45,5,2.52,SK,1688558179
479,arar,30.9753,41.0381,315.16,6,0,7.2,SA,1688558180
480,hilo,19.7297,-155.09,298.31,89,20,2.68,US,1688557908
481,baiao,-2.7906,-49.6717,301.81,71,48,0.92,BR,1688558180
482,inarajan village,13.2736,144.7484,302.59,94,65,6.49,GU,1688558181
483,encheng,22.1839,112.3026,300.16,89,56,2.44,CN,1688558181
484,lensk,60.7253,114.9278,294.51,49,100,3.86,RU,1688558181
485,hsinchu,24.8036,120.9686,305.85,58,75,1.34,TW,1688558137
486,prachuap khiri khan,12.2167,99.75,302.98,70,100,2.08,TH,1688558182
487,northam,51.0333,-4.2167,291.29,69,37,7.51,GB,1688557664
488,tynda,55.1667,124.7167,293.79,70,30,0.59,RU,1688558183
489,luwuk,-0.9516,122.7875,299.23,89,98,0.79,ID,1688558183
490,jamaame,0.0697,42.745,302.06,54,17,8.76,SO,1688558184
491,rufino,-34.2683,-62.7126,286.11,47,59,5.55,AR,1688558185
492,abu jibeha,11.4562,31.2285,305.68,43,67,3.73,SD,1688558185
493,belmonte,-15.8631,-38.8828,294.8,78,93,4.78,BR,1688557642
494,ust'-kulom,61.6864,53.6902,299.89,31,35,3.49,RU,1688558185
495,taltal,-25.4,-70.4833,288.45,71,20,0.97,CL,1688557600
496,shasta lake,40.6804,-122.3708,295.82,67,0,1.7,US,1688558186
497,istgah-e rah ahan-e garmsar,35.2346,52.3094,311.15,13,0,8.36,IR,1688558187
498,selfoss,63.9331,-20.9971,282.06,72,48,5.65,IS,1688558187
499,hobyo,5.3505,48.5268,301.0,66,99,13.75,SO,1688557673
500,rondonopolis,-16.4708,-54.6356,295.17,40,0,1.41,BR,1688558188
501,taro,-8.3862,115.28,295.15,97,78,1.17,ID,1688557752
502,el colomo,19.05,-104.25,298.75,82,63,1.59,MX,1688558188
503,acajutla,13.5928,-89.8275,299.82,76,100,1.83,SV,1688557646
504,alo,7.4178,6.7371,299.45,85,91,3.21,NG,1688557594
505,jennings,38.7192,-90.2604,297.69,87,45,2.35,US,1688558189
506,port augusta,-32.5,137.7667,286.01,60,5,8.3,AU,1688558189
507,fada,9.5667,8.3,300.76,63,67,1.94,NG,1688558190
508,brookings,44.3114,-96.7984,288.34,88,100,3.09,US,1688557827
509,spring creek,40.7266,-115.5859,286.09,44,0,1.91,US,1688558191
510,tanjung pandan,-2.75,107.65,298.89,87,31,2.11,ID,1688557932
511,kokopo,-4.352,152.2633,298.53,87,99,3.29,PG,1688557762
512,gamba,-2.65,10.0,298.82,68,4,4.16,GA,1688557680
513,nguigmi,14.2495,13.1092,308.52,31,95,3.26,NE,1688558192
514,gaiman,-43.2897,-65.4929,281.08,42,0,10.89,AR,1688557651
515,bengkulu,-3.8004,102.2655,298.39,89,85,2.95,ID,1688557603
516,aripuana,-9.1667,-60.6333,296.24,56,5,0.77,BR,1688558192
517,atbasar,51.8,68.3333,302.89,27,46,6.63,KZ,1688558193
518,alaghsas,17.0187,8.0168,309.09,38,0,6.17,NE,1688557832
519,bima,-8.4667,118.7167,297.37,92,42,2.23,ID,1688558194
520,sisimiut,66.9395,-53.6735,280.59,93,100,6.35,GL,1688558194
521,nishinoomote,30.7333,131.0,300.25,91,100,10.55,JP,1688557612
522,wynyard,-41.0,145.7167,284.81,90,100,0.54,AU,1688558184
523,gurghiu,46.7667,24.85,300.29,55,97,1.06,RO,1688558195
524,itupiranga,-5.1347,-49.3267,299.33,57,81,1.6,BR,1688558195
525,fairfax,38.8501,-77.3497,298.75,85,94,0.45,US,1688558195
526,aykhal,66.0,111.5,291.84,62,40,2.11,RU,1688557610
527,kargasok,59.0556,80.8572,302.87,38,15,2.51,RU,1688558196
528,puerto aysen,-45.4,-72.7,277.25,97,100,2.67,CL,1688557836
529,nianzishan,47.5167,122.8833,291.0,97,100,7.31,CN,1688558197
530,gabes,33.8815,10.0982,309.13,23,0,5.66,TN,1688558197
531,ancud,-41.8697,-73.8203,281.58,80,55,8.2,CL,1688558197
532,canton,23.1167,113.25,306.12,58,82,5.75,CN,1688558083
533,katsuura,35.1333,140.3,297.24,90,100,6.68,JP,1688557481
534,miracema do tocantins,-9.5618,-48.3967,299.96,39,52,5.17,BR,1688558198
535,whangarei,-35.7317,174.3239,283.36,98,97,1.58,NZ,1688558199
536,uthal,25.8072,66.6219,306.12,62,16,7.55,PK,1688558199
537,pontremoli,44.3751,9.8789,298.66,61,57,2.49,IT,1688558199
538,yicheng,31.3705,119.8703,300.73,87,74,2.95,CN,1688558199
539,kalabo,-14.97,22.6814,300.61,18,0,3.87,ZM,1688557681
540,shahrud,36.4182,54.9763,302.43,24,10,7.57,IR,1688558200
541,kankanhalli,12.55,77.4167,294.67,91,100,6.56,IN,1688557985
542,dapa,9.7594,126.0531,300.98,80,100,3.72,PH,1688558200
543,fereydun kenar,36.6864,52.5225,301.46,61,8,4.19,IR,1688558201
544,hadibu,12.65,54.0333,300.8,64,99,12.09,YE,1688558201
545,gurupi,-11.7292,-49.0686,298.23,35,92,6.55,BR,1688557427
546,sola,-13.8833,167.55,298.71,82,96,8.68,VU,1688558201
547,sinjai,-5.1241,120.253,298.12,92,94,1.76,ID,1688558202
548,altai,46.3722,96.2583,289.25,34,72,6.54,MN,1688558202
549,eydhafushi,5.1033,73.0708,301.16,76,100,8.83,MV,1688558203
550,bakchar,57.0186,82.0711,299.74,48,83,2.82,RU,1688557660
551,christchurch,-43.5333,172.6333,278.12,88,51,0.51,NZ,1688557987
552,zvishavane,-20.3267,30.0665,297.29,17,0,3.75,ZW,1688558204
553,westport,41.1415,-73.3579,298.25,92,100,0.0,US,1688558204
554,barra do bugres,-15.0725,-57.1811,294.77,42,3,2.12,BR,1688558204
555,guerrero negro,27.9769,-114.0611,290.35,89,85,1.71,MX,1688558205
556,princeville,45.7668,-61.2985,292.39,95,100,1.54,CA,1688558205
557,isetskoye,56.4858,65.3226,302.83,48,4,3.58,RU,1688558205
558,ketchikan,55.3422,-131.6461,285.4,95,73,2.68,US,1688558206
559,kincardine,56.0667,-3.7167,292.88,61,70,3.67,GB,1688558206
560,loacan,16.55,120.6667,294.13,93,74,1.23,PH,1688558206
561,anadarko,35.0726,-98.2437,296.06,77,33,3.18,US,1688558207
562,ceres,37.5949,-120.9577,290.49,75,0,4.12,US,1688557855
563,solvang,34.5958,-120.1377,287.12,82,100,0.0,US,1688558207
564,makhambet,47.6667,51.5833,308.12,23,25,3.85,KZ,1688558207
565,diapaga,12.0708,1.7889,305.11,46,85,4.65,BF,1688558208
566,chiquinquira,5.6164,-73.8175,284.61,92,79,1.34,CO,1688558208
567,suez,29.9737,32.5263,309.68,25,0,4.79,EG,1688558209
568,letterkenny,54.95,-7.7333,289.09,66,82,6.22,IE,1688557677
569,yamada,39.4667,141.95,292.69,97,100,2.62,JP,1688558209
570,illizi,26.4833,8.4667,315.04,8,0,7.47,DZ,1688558209
571,sao gabriel da cachoeira,-0.1303,-67.0892,296.8,97,96,0.9,BR,1688557663
572,kota belud,6.351,116.4305,299.34,86,69,1.09,MY,1688558210
573,saiha,22.4833,92.9667,297.8,95,69,1.42,IN,1688558210
574,ipsala,40.9212,26.3827,306.04,28,0,4.26,TR,1688558211
575,trail,49.0998,-117.7022,288.14,76,26,1.76,CA,1688558212
576,kiunga,-6.1219,141.2906,296.79,98,91,0.66,PG,1688557640
577,kangdong-up,39.1425,126.0961,294.24,86,0,2.11,KP,1688558212
578,kavieng,-2.5744,150.7967,301.12,80,80,5.32,PG,1688558212
